{
"OPT":{
"status":"OK",
"citys":[{"cityId":"1","cityName":"台北市","cityCode": "Taipei","areas":[{"zipCode":"104","name":"中山區","lat":25.068889,"lng":121.533056},{"zipCode":"106","name":"大安區","lat":25.027751,"lng":121.543465},{"zipCode":"100","name":"中正區","lat":25.031667,"lng":121.516389},{"zipCode":"114","name":"內湖區","lat":25.066667,"lng":121.583333},{"zipCode":"111","name":"士林區","lat":25.0833,"lng":121.517},{"zipCode":"116","name":"文山區","lat":24.989722,"lng":121.572222},{"zipCode":"110","name":"信義區","lat":25.028702,"lng":121.576957},{"zipCode":"112","name":"北投區","lat":25.1167,"lng":121.5},{"zipCode":"105","name":"松山區","lat":25.059166,"lng":121.558914},{"zipCode":"103","name":"大同區","lat":25.059722,"lng":121.514167},{"zipCode":"108","name":"萬華區","lat":25.026286,"lng":121.497029},{"zipCode":"115","name":"南港區","lat":25.053315,"lng":121.607409}],"lat":25.047924,"lng":121.517081},{"cityId":"7","cityName":"新北市","cityCode": "NewTaipei","areas":[{"zipCode":"220","name":"板橋區","lat":25.011111,"lng":121.445833},{"zipCode":"231","name":"新店區","lat":24.95,"lng":121.533333},{"zipCode":"235","name":"中和區","lat":24.997222,"lng":121.504167},{"zipCode":"241","name":"三重區","lat":25.066667,"lng":121.5},{"zipCode":"234","name":"永和區","lat":25.0075,"lng":121.516389},{"zipCode":"242","name":"新莊區","lat":25.033333,"lng":121.45},{"zipCode":"221","name":"汐止區","lat":25.066667,"lng":121.666667},{"zipCode":"251","name":"淡水區","lat":25.189574,"lng":121.457045},{"zipCode":"247","name":"蘆洲區","lat":25.083333,"lng":121.466667},{"zipCode":"244","name":"林口區","lat":25.101667,"lng":121.363056},{"zipCode":"236","name":"土城區","lat":24.9667,"lng":121.433},{"zipCode":"238","name":"樹林區","lat":24.99,"lng":121.41},{"zipCode":"243","name":"泰山區","lat":25.055666,"lng":121.417046},{"zipCode":"248","name":"五股區","lat":25.088806,"lng":121.43419},{"zipCode":"249","name":"八里區","lat":25.15,"lng":121.4},{"zipCode":"252","name":"三芝區","lat":25.236667,"lng":121.525278},{"zipCode":"239","name":"鶯歌區","lat":24.95,"lng":121.35},{"zipCode":"237","name":"三峽區","lat":24.933333,"lng":121.366667},{"zipCode":"208","name":"金山區","lat":25.22508,"lng":121.638625},{"zipCode":"222","name":"深坑區","lat":25.003333,"lng":121.617222},{"zipCode":"223","name":"石碇區","lat":25,"lng":121.65},{"zipCode":"224","name":"瑞芳區","lat":25.116667,"lng":121.8},{"zipCode":"226","name":"平溪區","lat":25.034598,"lng":121.75374},{"zipCode":"227","name":"雙溪區","lat":25.009722,"lng":121.834167},{"zipCode":"228","name":"貢寮區","lat":25.016667,"lng":121.9},{"zipCode":"232","name":"坪林區","lat":24.924444,"lng":121.726667},{"zipCode":"233","name":"烏來區","lat":24.866667,"lng":121.55},{"zipCode":"207","name":"萬里區","lat":25.1675,"lng":121.639444},{"zipCode":"253","name":"石門區","lat":25.268611,"lng":121.571389}],"lat":25.012235,"lng":121.465541},{"cityId":"26","cityName":"基隆市","cityCode": "Keelung","areas":[{"zipCode":"200","name":"仁愛區","lat":25.118716,"lng":121.745193},{"zipCode":"201","name":"信義區","lat":25.128434,"lng":121.782228},{"zipCode":"202","name":"中正區","lat":25.148999,"lng":121.773682},{"zipCode":"203","name":"中山區","lat":25.152587,"lng":121.725246},{"zipCode":"204","name":"安樂區","lat":25.147414,"lng":121.702445},{"zipCode":"205","name":"暖暖區","lat":25.083616,"lng":121.748042},{"zipCode":"206","name":"七堵區","lat":25.114392,"lng":121.685341}],"lat":25.132302,"lng":121.739466},{"cityId":"8","cityName":"宜蘭縣","cityCode": "Yilan","areas":[{"zipCode":"260","name":"宜蘭市","lat":24.75,"lng":121.75},{"zipCode":"270","name":"蘇澳鎮","lat":24.6,"lng":121.85},{"zipCode":"269","name":"冬山鄉","lat":24.631919,"lng":121.75374},{"zipCode":"268","name":"五結鄉","lat":24.7,"lng":121.783333},{"zipCode":"267","name":"大同鄉","lat":24.677167,"lng":121.609028},{"zipCode":"266","name":"三星鄉","lat":24.674489,"lng":121.662532},{"zipCode":"265","name":"羅東鎮","lat":24.676683,"lng":121.766925},{"zipCode":"264","name":"員山鄉","lat":24.738129,"lng":121.662532},{"zipCode":"263","name":"壯圍鄉","lat":24.769569,"lng":121.799317},{"zipCode":"262","name":"礁溪鄉","lat":24.816667,"lng":121.766667},{"zipCode":"261","name":"頭城鎮","lat":24.85,"lng":121.816667},{"zipCode":"272","name":"南澳鄉","lat":24.466667,"lng":121.8}],"lat":24.754512,"lng":121.758253},{"cityId":"4","cityName":"桃園縣","cityCode": "Taoyuan","areas":[{"zipCode":"330","name":"桃園市","lat":24.988889, "lng":121.311111},{"zipCode":"320","name":"中壢區","lat":24.956569,"lng": 121.224044},{"zipCode":"324","name":"平鎮區","lat":24.943961,"lng":121.216064},{"zipCode":"325","name":"龍潭區","lat": 24.844444,"lng":121.205278},{"zipCode":"337","name":"大園區","lat":25.049263,"lng":121.193945},{"zipCode":"336","name":"復興區","lat": 24.822828,"lng":121.351742},{"zipCode":"335","name":"大溪區","lat": 24.880611,"lng": 121.287083},{"zipCode":"334","name":"八德區","lat":24.957619,"lng":121.298783},{"zipCode":"333","name":"龜山區","lat":25.019909,"lng":121.365599},{"zipCode":"328","name":"觀音區","lat":25.05,"lng":121.083333},{"zipCode":"327","name":"新屋區","lat":24.966667,"lng":121.1},{"zipCode":"326","name":"楊梅區","lat":24.916667,"lng":121.15},{"zipCode":"338","name":"蘆竹區","lat":25.033333,"lng":121.283333}],
"lat":24.989206,
"lng":121.313549
},{"cityId":"5","cityName":"新竹縣","cityCode": "Hsinchu","areas":[{"zipCode":"302","name":"竹北市","lat":24.833333,"lng":121.011944},{"zipCode":"314","name":"北埔鄉","lat":24.663889,"lng":121.068056},{"zipCode":"313","name":"尖石鄉","lat":24.576067,"lng":121.308409},{"zipCode":"312","name":"橫山鄉","lat":24.711301,"lng":121.136672},{"zipCode":"311","name":"五峰鄉","lat":24.591544,"lng":121.148128},{"zipCode":"310","name":"竹東鎮","lat":24.736611,"lng":121.091578},{"zipCode":"308","name":"寶山鄉","lat":24.742791,"lng":120.999103},{"zipCode":"307","name":"芎林鄉","lat":24.765792,"lng":121.108024},{"zipCode":"306","name":"關西鎮","lat":24.8,"lng":121.183333},{"zipCode":"305","name":"新埔鎮","lat":24.849606,"lng":121.090833},{"zipCode":"304","name":"新豐鄉","lat":24.916667,"lng":121},{"zipCode":"303","name":"湖口鄉","lat":24.9,"lng":121.05},{"zipCode":"315","name":"峨眉鄉","lat":24.678841,"lng":120.999103}],"lat":24.826921,"lng":121.012895},{"cityId":"21","cityName":"新竹市","cityCode": "Hsinchu","areas":[{"zipCode":"300","name":"新竹市","lat":24.801643,"lng":120.971696}],"lat":24.801643,"lng":120.971696},{"cityId":"17","cityName":"苗栗縣","cityCode": "Miaoli","areas":[{"zipCode":"360","name":"苗栗市","lat":24.57,"lng":120.82},{"zipCode":"350","name":"竹南鎮","lat":24.700922,"lng":120.878603},{"zipCode":"368","name":"西湖鄉","lat":24.55,"lng":120.75},{"zipCode":"367","name":"三義鄉","lat":24.416667,"lng":120.766667},{"zipCode":"366","name":"銅鑼鄉","lat":24.483333,"lng":120.783333},{"zipCode":"365","name":"泰安鄉","lat":24.383195,"lng":121.03351},{"zipCode":"364","name":"大湖鄉","lat":24.397778,"lng":120.848611},{"zipCode":"363","name":"公館鄉","lat":24.501921,"lng":120.838409},{"zipCode":"362","name":"頭屋鄉","lat":24.583333,"lng":120.85},{"zipCode":"361","name":"造橋鄉","lat":24.65,"lng":120.866667},{"zipCode":"358","name":"苑裡鎮","lat":24.409826,"lng":120.677505},{"zipCode":"357","name":"通霄鎮","lat":24.483333,"lng":120.683333},{"zipCode":"356","name":"後龍鎮","lat":24.616667,"lng":120.783333},{"zipCode":"354","name":"獅潭鄉","lat":24.523866,"lng":120.93026},{"zipCode":"353","name":"南庄鄉","lat":24.580294,"lng":121.010573},{"zipCode":"352","name":"三灣鄉","lat":24.630529,"lng":120.93026},{"zipCode":"351","name":"頭份鎮","lat":24.678404,"lng":120.907304},{"zipCode":"369","name":"卓蘭鎮","lat":24.322222,"lng":120.844722}],"lat":24.57002,"lng":120.822343},{"cityId":"9","cityName":"台中市","cityCode": "Taichung","areas":[{"zipCode":"407","name":"西屯區","lat":24.18482,"lng":120.631495},{"zipCode":"403","name":"西區","lat":24.14306,"lng":120.663129},{"zipCode":"408","name":"南屯區","lat":24.147118,"lng":120.608483},{"zipCode":"406","name":"北屯區","lat":24.180698,"lng":120.74649},{"zipCode":"404","name":"北區","lat":24.157317,"lng":120.683256},{"zipCode":"402","name":"南區","lat":24.119634,"lng":120.660253},{"zipCode":"400","name":"中區","lat":24.14026,"lng":120.681818},{"zipCode":"401","name":"東區","lat":24.133385,"lng":120.694755},{"zipCode":"428","name":"大雅區","lat":24.216667,"lng":120.65},{"zipCode":"429","name":"神岡區","lat":24.260166,"lng":120.677505},{"zipCode":"432","name":"大肚區","lat":24.135873,"lng":120.562447},{"zipCode":"433","name":"沙鹿區","lat":24.237794,"lng":120.585467},{"zipCode":"434","name":"龍井區","lat":24.210243,"lng":120.516395},{"zipCode":"435","name":"梧棲區","lat":24.210243,"lng":120.516395},{"zipCode":"436","name":"清水區","lat":24.301983,"lng":120.585467},{"zipCode":"437","name":"大甲區","lat":24.378823,"lng":120.648751},{"zipCode":"438","name":"外埔區","lat":24.32943,"lng":120.654502},{"zipCode":"427","name":"潭子區","lat":24.218,"lng":120.706},{"zipCode":"426","name":"新社區","lat":24.186719,"lng":120.815436},{"zipCode":"411","name":"太平區","lat":24.119605,"lng":120.780968},{"zipCode":"412","name":"大里區","lat":24.091667,"lng":120.691667},{"zipCode":"413","name":"霧峰區","lat":24.066667,"lng":120.7},{"zipCode":"414","name":"烏日區","lat":24.08447,"lng":120.625742},{"zipCode":"420","name":"豐原區","lat":24.08447,"lng":120.625742},{"zipCode":"421","name":"后里區","lat":24.316667,"lng":120.716667},{"zipCode":"422","name":"石岡區","lat":24.262562,"lng":120.786713},{"zipCode":"423","name":"東勢區","lat":24.258694,"lng":120.828167},{"zipCode":"424","name":"和平區","lat":24.266667,"lng":121.15},{"zipCode":"439","name":"大安區","lat":24.370235,"lng":120.591222}],"lat":24.136781,"lng":120.685008},{"cityId":"24","cityName":"彰化縣","cityCode": "Changhua","areas":[{"zipCode":"500","name":"彰化市","lat":24.066667,"lng":120.533333},{"zipCode":"515","name":"大村鄉","lat":23.991111,"lng":120.539444},{"zipCode":"516","name":"埔鹽鄉","lat":23.989814,"lng":120.447285},{"zipCode":"520","name":"田中鎮","lat":23.85254,"lng":120.585467},{"zipCode":"521","name":"北斗鎮","lat":23.8747,"lng":120.5248},{"zipCode":"522","name":"田尾鄉","lat":23.903846,"lng":120.522152},{"zipCode":"523","name":"埤頭鄉","lat":23.8775,"lng":120.470556},{"zipCode":"524","name":"溪州鄉","lat":23.824784,"lng":120.516395},{"zipCode":"525","name":"竹塘鄉","lat":23.844826,"lng":120.42424},{"zipCode":"526","name":"二林鎮","lat":23.914136,"lng":120.401191},{"zipCode":"527","name":"大城鄉","lat":23.848333,"lng":120.308889},{"zipCode":"528","name":"芳苑鄉","lat":23.945595,"lng":120.355081},{"zipCode":"514","name":"溪湖鎮","lat":23.959548,"lng":120.480087},{"zipCode":"513","name":"埔心鄉","lat":23.948253,"lng":120.539423},{"zipCode":"502","name":"芬園鄉","lat":24.009581,"lng":120.625742},{"zipCode":"503","name":"花壇鄉","lat":24.028845,"lng":120.562447},{"zipCode":"504","name":"秀水鄉","lat":24.03486,"lng":120.510637},{"zipCode":"505","name":"鹿港鎮","lat":24.05,"lng":120.433333},{"zipCode":"506","name":"福興鄉","lat":24.037701,"lng":120.42424},{"zipCode":"507","name":"線西鄉","lat":24.133161,"lng":120.453046},{"zipCode":"508","name":"和美鎮","lat":24.116667,"lng":120.5},{"zipCode":"509","name":"伸港鄉","lat":24.172493,"lng":120.493362},{"zipCode":"510","name":"員林鎮","lat":23.961111,"lng":120.573611},{"zipCode":"511","name":"社頭鄉","lat":23.911719,"lng":120.608483},{"zipCode":"512","name":"永靖鄉","lat":23.920228,"lng":120.54518},{"zipCode":"530","name":"二水鄉","lat":23.816667,"lng":120.616667}],"lat":24.081666,"lng":120.538539},{"cityId":"15","cityName":"南投縣","cityCode": "Nantou","areas":[{"zipCode":"540","name":"南投市","lat":23.916667,"lng":120.683333},{"zipCode":"557","name":"竹山鎮","lat":23.688889,"lng":120.728889},{"zipCode":"556","name":"信義鄉","lat":23.667976,"lng":120.987632},{"zipCode":"555","name":"魚池鄉","lat":23.9,"lng":120.933333},{"zipCode":"553","name":"水里鄉","lat":23.791952,"lng":120.861379},{"zipCode":"552","name":"集集鎮","lat":23.83,"lng":120.783},{"zipCode":"551","name":"名間鄉","lat":23.851,"lng":120.6775},{"zipCode":"546","name":"仁愛鄉","lat":24.021374,"lng":121.125213},{"zipCode":"545","name":"埔里鎮","lat":23.966667,"lng":120.966667},{"zipCode":"544","name":"國姓鄉","lat":24.056443,"lng":120.872861},{"zipCode":"542","name":"草屯鎮","lat":23.983,"lng":120.7326},{"zipCode":"541","name":"中寮鄉","lat":23.903889,"lng":120.781944},{"zipCode":"558","name":"鹿谷鄉","lat":23.734837,"lng":120.780968}],"lat":23.826451,"lng":120.784891},{"cityId":"20","cityName":"雲林縣","cityCode": "Yunlin","areas":[{"zipCode":"640","name":"斗六市","lat":23.7075,"lng":120.543889},{"zipCode":"646","name":"古坑鄉","lat":23.65,"lng":120.566667},{"zipCode":"647","name":"莿桐鄉","lat":23.776934,"lng":120.539423},{"zipCode":"648","name":"西螺鎮","lat":23.775529,"lng":120.447285},{"zipCode":"649","name":"二崙鄉","lat":23.785517,"lng":120.401191},{"zipCode":"651","name":"北港鎮","lat":23.566667,"lng":120.3},{"zipCode":"652","name":"水林鄉","lat":23.562809,"lng":120.239734},{"zipCode":"653","name":"口湖鄉","lat":23.577585,"lng":120.170477},{"zipCode":"654","name":"四湖鄉","lat":23.637083,"lng":120.193566},{"zipCode":"630","name":"斗南鎮","lat":23.683333,"lng":120.483333},{"zipCode":"643","name":"林內鄉","lat":23.761884,"lng":120.608483},{"zipCode":"638","name":"麥寮鄉","lat":23.75,"lng":120.25},{"zipCode":"637","name":"崙背鄉","lat":23.77903,"lng":120.33202},{"zipCode":"636","name":"台西鄉","lat":23.722971,"lng":120.193566},{"zipCode":"635","name":"東勢鄉","lat":23.693257,"lng":120.257042},{"zipCode":"634","name":"褒忠鄉","lat":23.6955,"lng":120.3116},{"zipCode":"633","name":"土庫鎮","lat":23.688264,"lng":120.355081},{"zipCode":"632","name":"虎尾鎮","lat":23.716218,"lng":120.42424},{"zipCode":"631","name":"大埤鄉","lat":23.683333,"lng":120.483333},{"zipCode":"655","name":"元長鄉","lat":23.628877,"lng":120.33202}],"lat":23.672972,"lng":120.480841},{"cityId":"23","cityName":"嘉義縣","cityCode": "Chiayi","areas":[{"zipCode":"602","name":"番路鄉","lat":23.440735,"lng":120.608483},{"zipCode":"624","name":"義竹鄉","lat":23.353011,"lng":120.216652},{"zipCode":"623","name":"溪口鄉","lat":23.592556,"lng":120.401191},{"zipCode":"622","name":"大林鎮","lat":23.599093,"lng":120.470326},{"zipCode":"621","name":"民雄鄉","lat":23.547995,"lng":120.458806},{"zipCode":"616","name":"新港鄉","lat":23.538123,"lng":120.355081},{"zipCode":"615","name":"六腳鄉","lat":23.514949,"lng":120.262811},{"zipCode":"614","name":"東石鄉","lat":23.470192,"lng":120.170477},{"zipCode":"613","name":"朴子市","lat":23.4611,"lng":120.242},{"zipCode":"612","name":"太保市","lat":23.45,"lng":120.333333},{"zipCode":"611","name":"鹿草鄉","lat":23.419257,"lng":120.308954},{"zipCode":"608","name":"水上鄉","lat":23.437515,"lng":120.42424},{"zipCode":"607","name":"大埔鄉","lat":23.304018,"lng":120.596976},{"zipCode":"606","name":"中埔鄉","lat":23.399594,"lng":120.550936},{"zipCode":"605","name":"阿里山鄉","lat":23.435468,"lng":120.780968},{"zipCode":"604","name":"竹崎鄉","lat":23.504972,"lng":120.608483},{"zipCode":"603","name":"梅山鄉","lat":23.541025,"lng":120.689005},{"zipCode":"625","name":"布袋鎮","lat":23.36279,"lng":120.170477}],"lat":23.459052,"lng":120.293451},{"cityId":"22","cityName":"嘉義市","cityCode": "Chiayi","areas":[{"zipCode":"600","name":"嘉義市","lat":23.479306,"lng":120.440828}],"lat":23.479306,"lng":120.440828},{"cityId":"6","cityName":"台南市","cityCode": "Tainan","areas":[{"zipCode":"701","name":"東區","lat":22.98133,"lng":120.222423},{"zipCode":"704","name":"北區","lat":23.008515,"lng":120.207995},{"zipCode":"700","name":"中西區","lat":22.994821,"lng":120.196452},{"zipCode":"708","name":"安平區","lat":22.993404,"lng":120.164704},{"zipCode":"709","name":"安南區","lat":23.058534,"lng":120.135835},{"zipCode":"702","name":"南區","lat":22.956352,"lng":120.187794},{"zipCode":"733","name":"東山區","lat":23.282501,"lng":120.447285},{"zipCode":"732","name":"白河區","lat":23.333637,"lng":120.458806},{"zipCode":"731","name":"後壁區","lat":23.36651,"lng":120.355081},{"zipCode":"730","name":"新營區","lat":23.308333,"lng":120.313889},{"zipCode":"727","name":"北門區","lat":23.286603,"lng":120.124285},{"zipCode":"726","name":"學甲區","lat":23.25538,"lng":120.170477},{"zipCode":"734","name":"六甲區","lat":23.242681,"lng":120.33202},{"zipCode":"735","name":"下營區","lat":23.229291,"lng":120.26858},{"zipCode":"736","name":"柳營區","lat":23.278333,"lng":120.3175},{"zipCode":"737","name":"鹽水區","lat":23.262231,"lng":120.239734},{"zipCode":"741","name":"善化區","lat":23.133333,"lng":120.3},{"zipCode":"742","name":"大內區","lat":23.142196,"lng":120.401191},{"zipCode":"743","name":"山上區","lat":23.089307,"lng":120.372374},{"zipCode":"744","name":"新市區","lat":23.083333,"lng":120.3},{"zipCode":"725","name":"將軍區","lat":23.216876,"lng":120.137211},{"zipCode":"724","name":"七股區","lat":23.119722,"lng":120.103333},{"zipCode":"710","name":"永康區","lat":23.016667,"lng":120.25},{"zipCode":"711","name":"歸仁區","lat":22.966667,"lng":120.283333},{"zipCode":"712","name":"新化區","lat":23.038333,"lng":120.310833},{"zipCode":"713","name":"左鎮區","lat":23.030078,"lng":120.42424},{"zipCode":"714","name":"玉井區","lat":23.116667,"lng":120.466667},{"zipCode":"715","name":"楠西區","lat":23.182015,"lng":120.516395},{"zipCode":"716","name":"南化區","lat":23.107913,"lng":120.562447},{"zipCode":"717","name":"仁德區","lat":22.966667,"lng":120.25},{"zipCode":"718","name":"關廟區","lat":22.95966,"lng":120.32776},{"zipCode":"719","name":"龍崎區","lat":22.954005,"lng":120.378138},{"zipCode":"720","name":"官田區","lat":23.183333,"lng":120.333333},{"zipCode":"721","name":"麻豆區","lat":23.183333,"lng":120.25},{"zipCode":"722","name":"佳里區","lat":23.169446,"lng":120.170477},{"zipCode":"723","name":"西港區","lat":23.125785,"lng":120.199338},{"zipCode":"745","name":"安定區","lat":23.095298,"lng":120.216652}],"lat":22.997144,"lng":120.212966},{"cityId":"3","cityName":"高雄市","cityCode": "Kaohsiung","areas":[{"zipCode":"807","name":"三民區","lat":22.648344,"lng":120.326253},{"zipCode":"813","name":"左營區","lat":22.682222,"lng":120.293889},{"zipCode":"802","name":"苓雅區","lat":22.626881,"lng":120.326253},{"zipCode":"804","name":"鼓山區","lat":22.648889,"lng":120.2725},{"zipCode":"800","name":"新興區","lat":22.628389,"lng":120.306071},{"zipCode":"806","name":"前鎮區","lat":22.597079,"lng":120.314721},{"zipCode":"801","name":"前金區","lat":22.625416,"lng":120.294536},{"zipCode":"811","name":"楠梓區","lat":22.7268,"lng":120.2975},{"zipCode":"812","name":"小港區","lat":22.555318,"lng":120.360845},{"zipCode":"803","name":"鹽埕區","lat":22.622441,"lng":120.283001},{"zipCode":"805","name":"旗津區","lat":22.587999,"lng":120.287327},{"zipCode":"831","name":"大寮區","lat":22.584481,"lng":120.401191},{"zipCode":"832","name":"林園區","lat":22.498676,"lng":120.401191},{"zipCode":"833","name":"鳥松區","lat":22.660205,"lng":120.372374},{"zipCode":"840","name":"大樹區","lat":22.708371,"lng":120.42424},{"zipCode":"842","name":"旗山區","lat":22.870249,"lng":120.470326},{"zipCode":"843","name":"美濃區","lat":22.890093,"lng":120.566883},{"zipCode":"844","name":"六龜區","lat":23.00262,"lng":120.654502},{"zipCode":"845","name":"內門區","lat":22.956009,"lng":120.470326},{"zipCode":"846","name":"杉林區","lat":23.00079,"lng":120.562447},{"zipCode":"847","name":"甲仙區","lat":23.083333,"lng":120.583333},{"zipCode":"851","name":"茂林區","lat":22.93194,"lng":120.734995},{"zipCode":"830","name":"鳳山區","lat":22.633333,"lng":120.35},{"zipCode":"829","name":"湖內區","lat":22.895418,"lng":120.222423},{"zipCode":"814","name":"仁武區","lat":22.694793,"lng":120.360846},{"zipCode":"815","name":"大社區","lat":22.737708,"lng":120.360845},{"zipCode":"820","name":"岡山區","lat":22.8,"lng":120.283333},{"zipCode":"821","name":"路竹區","lat":22.849404,"lng":120.262811},{"zipCode":"822","name":"阿蓮區","lat":22.883333,"lng":120.333333},{"zipCode":"823","name":"田寮區","lat":22.863347,"lng":120.401191},{"zipCode":"824","name":"燕巢區","lat":22.78237,"lng":120.378138},{"zipCode":"825","name":"橋頭區","lat":22.753901,"lng":120.308954},{"zipCode":"826","name":"梓官區","lat":22.74861,"lng":120.257042},{"zipCode":"827","name":"彌陀區","lat":22.783223,"lng":120.245503},{"zipCode":"828","name":"永安區","lat":22.811269,"lng":120.239734},{"zipCode":"852","name":"茄萣區","lat":22.906786,"lng":120.182603}],"lat":22.63962,"lng":120.302111},{"cityId":"16","cityName":"屏東縣","cityCode": "Pingtung","areas":[{"zipCode":"900","name":"屏東市","lat":22.676111,"lng":120.494167},{"zipCode":"925","name":"新埤鄉","lat":22.481759,"lng":120.585467},{"zipCode":"926","name":"南州鄉","lat":22.474734,"lng":120.516395},{"zipCode":"927","name":"林邊鄉","lat":22.433333,"lng":120.516667},{"zipCode":"928","name":"東港鎮","lat":22.466667,"lng":120.454444},{"zipCode":"929","name":"琉球鄉","lat":22.341667,"lng":120.369444},{"zipCode":"931","name":"佳冬鄉","lat":22.427078,"lng":120.539423},{"zipCode":"932","name":"新園鄉","lat":22.510551,"lng":120.447285},{"zipCode":"940","name":"枋寮鄉","lat":22.365611,"lng":120.593583},{"zipCode":"941","name":"枋山鄉","lat":22.260644,"lng":120.657378},{"zipCode":"942","name":"春日鄉","lat":22.385178,"lng":120.689005},{"zipCode":"943","name":"獅子鄉","lat":22.247169,"lng":120.734995},{"zipCode":"944","name":"車城鄉","lat":22.084307,"lng":120.74649},{"zipCode":"945","name":"牡丹鄉","lat":22.152022,"lng":120.780968},{"zipCode":"946","name":"恆春鎮","lat":22,"lng":120.75},{"zipCode":"924","name":"崁頂鄉","lat":22.515843,"lng":120.499121},{"zipCode":"923","name":"萬巒鄉","lat":22.584046,"lng":120.608483},{"zipCode":"922","name":"來義鄉","lat":22.533333,"lng":120.683333},{"zipCode":"901","name":"三地門鄉","lat":22.716667,"lng":120.65},{"zipCode":"902","name":"霧台鄉","lat":22.750989,"lng":120.780968},{"zipCode":"903","name":"瑪家鄉","lat":22.750989,"lng":120.780968},{"zipCode":"904","name":"九如鄉","lat":22.750989,"lng":120.780968},{"zipCode":"905","name":"里港鄉","lat":22.796236,"lng":120.516395},{"zipCode":"906","name":"高樹鄉","lat":22.796236,"lng":120.516395},{"zipCode":"907","name":"鹽埔鄉","lat":22.743681,"lng":120.562447},{"zipCode":"908","name":"長治鄉","lat":22.743681,"lng":120.562447},{"zipCode":"909","name":"麟洛鄉","lat":22.658656,"lng":120.533667},{"zipCode":"911","name":"竹田鄉","lat":22.658656,"lng":120.533667},{"zipCode":"912","name":"內埔鄉","lat":22.658656,"lng":120.533667},{"zipCode":"913","name":"萬丹鄉","lat":22.591522,"lng":120.470326},{"zipCode":"920","name":"潮州鎮","lat":22.591522,"lng":120.470326},{"zipCode":"921","name":"泰武鄉","lat":22.591522,"lng":120.470326},{"zipCode":"947","name":"滿州鄉","lat":22.04385,"lng":120.838409}],"lat":22.669306,"lng":120.486203},{"cityId":"10","cityName":"台東縣","cityCode": "Taitung","areas":[{"zipCode":"950","name":"台東市","lat":22.758333,"lng":121.144444},{"zipCode":"965","name":"大武鄉","lat":22.366667,"lng":120.9},{"zipCode":"964","name":"金峰鄉","lat":22.6,"lng":120.966667},{"zipCode":"963","name":"太麻里鄉","lat":22.616667,"lng":121},{"zipCode":"962","name":"長濱鄉","lat":23.316667,"lng":121.45},{"zipCode":"961","name":"成功鎮","lat":23.135,"lng":121.359},{"zipCode":"959","name":"東河鄉","lat":23.069172,"lng":121.285525},{"zipCode":"958","name":"池上鄉","lat":23.116667,"lng":121.216667},{"zipCode":"957","name":"海端鄉","lat":23.102807,"lng":121.03351},{"zipCode":"956","name":"關山鎮","lat":23.0181,"lng":121.194},{"zipCode":"955","name":"鹿野鄉","lat":22.958051,"lng":121.159584},{"zipCode":"954","name":"卑南鄉","lat":22.744743,"lng":121.010573},{"zipCode":"953","name":"延平鄉","lat":22.931996,"lng":121.03351},{"zipCode":"952","name":"蘭嶼鄉","lat":22.043562,"lng":121.548418},{"zipCode":"951","name":"綠島鄉","lat":22.65811,"lng":121.485607},{"zipCode":"966","name":"達仁鄉","lat":22.3,"lng":120.883333}],"lat":22.793711,"lng":121.123161},{"cityId":"13","cityName":"花蓮縣","cityCode": "Hualien","areas":[{"zipCode":"970","name":"花蓮市","lat":23.972222,"lng":121.606389},{"zipCode":"982","name":"卓溪鄉","lat":23.404007,"lng":121.216847},{"zipCode":"981","name":"玉里鎮","lat":23.3875,"lng":121.376389},{"zipCode":"979","name":"萬榮鄉","lat":23.724574,"lng":121.308409},{"zipCode":"978","name":"瑞穗鄉","lat":23.520562,"lng":121.411331},{"zipCode":"977","name":"豐濱鄉","lat":23.6,"lng":121.516667},{"zipCode":"976","name":"光復鄉","lat":23.635065,"lng":121.422761},{"zipCode":"975","name":"鳳林鎮","lat":23.75,"lng":121.433333},{"zipCode":"974","name":"壽豐鄉","lat":23.866667,"lng":121.516667},{"zipCode":"973","name":"吉安鄉","lat":23.95,"lng":121.572222},{"zipCode":"972","name":"秀林鄉","lat":24.216667,"lng":121.533333},{"zipCode":"971","name":"新城鄉","lat":24.051389,"lng":121.608333},{"zipCode":"983","name":"富里鄉","lat":23.154416,"lng":121.285525}],"lat":23.992868,"lng":121.600993},{"cityId":"14","cityName":"金門縣","cityCode": "Kinmen","areas":[{"zipCode":"890","name":"金沙鎮","lat":24.481109,"lng":118.427993},{"zipCode":"891","name":"金湖鎮","lat":24.437691,"lng":118.427993},{"zipCode":"892","name":"金寧鄉","lat":24.45672,"lng":118.334506},{"zipCode":"893","name":"金城鎮","lat":24.416667,"lng":118.316667},{"zipCode":"894","name":"烈嶼鄉","lat":24.427974,"lng":118.235119},{"zipCode":"896","name":"烏坵鄉","lat":24.991155,"lng":119.454205}],"lat":24.436788,"lng":118.318633},{"cityId":"25","cityName":"澎湖縣","cityCode": "Penghu","areas":[{"zipCode":"880","name":"馬公市","lat":23.566667,"lng":119.583333},{"zipCode":"881","name":"西嶼鄉","lat":23.605458,"lng":119.513671},{"zipCode":"882","name":"望安鄉","lat":23.359697,"lng":119.50207},{"zipCode":"883","name":"七美鄉","lat":23.208776,"lng":119.435344},{"zipCode":"884","name":"白沙鄉","lat":23.664044,"lng":119.594854},{"zipCode":"885","name":"湖西鄉","lat":23.583333,"lng":119.666667}],"lat":23.569885,"lng":119.578783}]
}
}